{
  "type": "FeatureCollection",
  "generator": "overpass-ide",
  "copyright": "The data included in this document is from www.openstreetmap.org. The data is made available under ODbL.",
  "timestamp": "2022-06-16T07:44:08Z",
  "features": [
    {
      "type": "Feature",
      "properties": {
        "@id": "node/26862538",
        "ele": "2150",
        "name": "Becco di Filadonna",
        "natural": "peak",
        "wikidata": "Q813568",
        "wikipedia": "it:Becco di Filadonna"
      },
      "geometry": {
        "type": "Point",
        "coordinates": [
          11.1934654,
          45.9636324
        ]
      },
      "id": "node/26862538"
    },
    {
      "type": "Feature",
      "properties": {
        "@id": "node/26862689",
        "ele": "3151",
        "name": "Cima Brenta",
        "natural": "peak",
        "prominence": "1496",
        "wikidata": "Q221844",
        "wikipedia": "it:Cima Brenta"
      },
      "geometry": {
        "type": "Point",
        "coordinates": [
          10.900036,
          46.1797021
        ]
      },
      "id": "node/26862689"
    },
    {
      "type": "Feature",
      "properties": {
        "@id": "node/26862693",
        "ele": "2847",
        "name": "Cima d'Asta",
        "natural": "peak",
        "summit:cross": "yes",
        "wikidata": "Q501840",
        "wikipedia": "it:Cima d'Asta"
      },
      "geometry": {
        "type": "Point",
        "coordinates": [
          11.6052937,
          46.1766183
        ]
      },
      "id": "node/26862693"
    },
    {
      "type": "Feature",
      "properties": {
        "@id": "node/26862707",
        "alt_name": "Monte Pasubio",
        "ele": "2232",
        "name": "Cima Palon",
        "natural": "peak",
        "prominence": "1070",
        "wikidata": "Q3676757",
        "wikipedia": "it:Cima Palon"
      },
      "geometry": {
        "type": "Point",
        "coordinates": [
          11.1765372,
          45.7922301
        ]
      },
      "id": "node/26862707"
    },
    {
      "type": "Feature",
      "properties": {
        "@id": "node/26862709",
        "ele": "1858",
        "name": "Punta di mezzodì",
        "natural": "peak"
      },
      "geometry": {
        "type": "Point",
        "coordinates": [
          11.1384313,
          45.7306233
        ]
      },
      "id": "node/26862709"
    },
    {
      "type": "Feature",
      "properties": {
        "@id": "node/26862710",
        "ele": "3556",
        "name": "Cima Presanella",
        "name:de": "Cima Presanella",
        "name:it": "Cima Presanella",
        "natural": "peak",
        "prominence": "1676",
        "summit:cross": "yes",
        "wikidata": "Q2094363",
        "wikipedia": "it:Cima Presanella"
      },
      "geometry": {
        "type": "Point",
        "coordinates": [
          10.6641189,
          46.2199321
        ]
      },
      "id": "node/26862710"
    },
    {
      "type": "Feature",
      "properties": {
        "@id": "node/26862712",
        "ele": "3136",
        "name": "Cima Tosa",
        "natural": "peak",
        "prominence": "584",
        "wikidata": "Q594670",
        "wikipedia": "it:Cima Tosa"
      },
      "geometry": {
        "type": "Point",
        "coordinates": [
          10.8711276,
          46.1565222
        ]
      },
      "id": "node/26862712"
    },
    {
      "type": "Feature",
      "properties": {
        "@id": "node/26862734",
        "ele": "2178",
        "importance": "regional",
        "name": "Monte Cornetto",
        "natural": "peak",
        "prominence": "1685",
        "source:prominence": "https://www.ii.uib.no/~petter/mountains/italy.html"
      },
      "geometry": {
        "type": "Point",
        "coordinates": [
          11.0317717,
          45.9880488
        ]
      },
      "id": "node/26862734"
    },
    {
      "type": "Feature",
      "properties": {
        "@id": "node/26863478",
        "ele": "1737",
        "importance": "regional",
        "name": "La Marzola",
        "natural": "peak",
        "prominence": "1055",
        "wikidata": "Q3850579",
        "wikipedia": "it:Marzola"
      },
      "geometry": {
        "type": "Point",
        "coordinates": [
          11.1874892,
          46.0319501
        ]
      },
      "id": "node/26863478"
    },
    {
      "type": "Feature",
      "properties": {
        "@id": "node/26863482",
        "ele": "2125",
        "importance": "regional",
        "name": "La Paganella",
        "natural": "peak",
        "prominence": "1099",
        "wikidata": "Q2046117",
        "wikipedia": "it:Paganella"
      },
      "geometry": {
        "type": "Point",
        "coordinates": [
          11.0374405,
          46.1432672
        ]
      },
      "id": "node/26863482"
    },
    {
      "type": "Feature",
      "properties": {
        "@id": "node/26863784",
        "ele": "2079",
        "name": "Monte Altissimo di Nago",
        "natural": "peak",
        "wikidata": "Q2448521",
        "wikipedia": "it:Monte Altissimo di Nago"
      },
      "geometry": {
        "type": "Point",
        "coordinates": [
          10.8888535,
          45.8100909
        ]
      },
      "id": "node/26863784"
    },
    {
      "type": "Feature",
      "properties": {
        "@id": "node/26863801",
        "alt_name": "Monte Geometra",
        "ele": "2250",
        "name": "Monte Cadria",
        "natural": "peak",
        "prominence": "1434",
        "wikidata": "Q1545440",
        "wikipedia": "it:Monte Cadria"
      },
      "geometry": {
        "type": "Point",
        "coordinates": [
          10.6983253,
          45.9385884
        ]
      },
      "id": "node/26863801"
    },
    {
      "type": "Feature",
      "properties": {
        "@id": "node/26863811",
        "alt_name": "Cima della Guardia",
        "ele": "1976",
        "name": "Monte Caplone",
        "natural": "peak",
        "prominence": "1234",
        "wikidata": "Q3861306",
        "wikipedia": "it:Monte Caplone"
      },
      "geometry": {
        "type": "Point",
        "coordinates": [
          10.641351,
          45.8021777
        ]
      },
      "id": "node/26863811"
    },
    {
      "type": "Feature",
      "properties": {
        "@id": "node/26863836",
        "ele": "1781",
        "name": "Monte Corno - Trudner Horn",
        "name:de": "Trudner Horn",
        "name:it": "Monte Corno",
        "natural": "peak",
        "wikidata": "Q2456159",
        "wikipedia": "it:Monte Corno (Bolzano)"
      },
      "geometry": {
        "type": "Point",
        "coordinates": [
          11.3238241,
          46.2898752
        ]
      },
      "id": "node/26863836"
    },
    {
      "type": "Feature",
      "properties": {
        "@id": "node/26863901",
        "ele": "1678",
        "name": "Monte Mezza",
        "natural": "peak",
        "summit:cross": "yes",
        "wikidata": "Q31635559"
      },
      "geometry": {
        "type": "Point",
        "coordinates": [
          11.5816667,
          46.0455556
        ]
      },
      "id": "node/26863901"
    },
    {
      "type": "Feature",
      "properties": {
        "@id": "node/26863994",
        "ele": "1705",
        "name": "Monte Totoga",
        "natural": "peak",
        "wikidata": "Q3862083",
        "wikipedia": "it:Monte Totoga"
      },
      "geometry": {
        "type": "Point",
        "coordinates": [
          11.7492946,
          46.135559
        ]
      },
      "id": "node/26863994"
    },
    {
      "type": "Feature",
      "properties": {
        "@id": "node/206124143",
        "ele": "2100",
        "name": "Doss del Sabion",
        "natural": "peak",
        "wikidata": "Q31222362"
      },
      "geometry": {
        "type": "Point",
        "coordinates": [
          10.806582,
          46.1674851
        ]
      },
      "id": "node/206124143"
    },
    {
      "type": "Feature",
      "properties": {
        "@id": "node/206140857",
        "ele": "2636",
        "name": "Menicigolo",
        "natural": "peak",
        "wikidata": "Q31635598"
      },
      "geometry": {
        "type": "Point",
        "coordinates": [
          10.6065497,
          46.1858428
        ]
      },
      "id": "node/206140857"
    },
    {
      "type": "Feature",
      "properties": {
        "@id": "node/248951671",
        "alt_name": "Cornon",
        "ele": "2188",
        "importance": "urban",
        "name": "Cornacci",
        "natural": "peak",
        "source:ele": "3rd Military Mapping Survey of Austria-Hungary"
      },
      "geometry": {
        "type": "Point",
        "coordinates": [
          11.5235816,
          46.3113226
        ]
      },
      "id": "node/248951671"
    },
    {
      "type": "Feature",
      "properties": {
        "@id": "node/253458380",
        "ele": "2481",
        "importance": "urban",
        "name": "Ziolera",
        "natural": "peak",
        "source:ele": "3rd Military Mapping Survey of Austria-Hungary",
        "summit:cross": "yes"
      },
      "geometry": {
        "type": "Point",
        "coordinates": [
          11.4554569,
          46.171736
        ]
      },
      "id": "node/253458380"
    },
    {
      "type": "Feature",
      "properties": {
        "@id": "node/253458640",
        "ele": "2484",
        "importance": "urban",
        "name": "Cimon di Val Moena",
        "natural": "peak",
        "source:ele": "3rd Military Mapping Survey of Austria-Hungary",
        "wikidata": "Q31636057"
      },
      "geometry": {
        "type": "Point",
        "coordinates": [
          11.4792198,
          46.220685
        ]
      },
      "id": "node/253458640"
    },
    {
      "type": "Feature",
      "properties": {
        "@id": "node/253472355",
        "ele": "2027",
        "importance": "suburban",
        "name": "La Sopösa",
        "natural": "peak"
      },
      "geometry": {
        "type": "Point",
        "coordinates": [
          11.6219478,
          46.3251155
        ]
      },
      "id": "node/253472355"
    },
    {
      "type": "Feature",
      "properties": {
        "@id": "node/253472403",
        "ele": "2161",
        "importance": "urban",
        "is_in": "Predazzo, Trento, Trentino-Alto Adige, Italy",
        "name": "Mulat",
        "natural": "peak",
        "source:ele": "3rd Military Mapping Survey of Austria-Hungary"
      },
      "geometry": {
        "type": "Point",
        "coordinates": [
          11.6326015,
          46.3270715
        ]
      },
      "id": "node/253472403"
    },
    {
      "type": "Feature",
      "properties": {
        "@id": "node/253472816",
        "ele": "2026",
        "importance": "suburban",
        "natural": "peak",
        "source:ele": "http://lazarus.elte.hu/hun/digkonyv/topo/200e/29-46.jpg"
      },
      "geometry": {
        "type": "Point",
        "coordinates": [
          11.5517295,
          46.2991643
        ]
      },
      "id": "node/253472816"
    },
    {
      "type": "Feature",
      "properties": {
        "@id": "node/253473249",
        "ele": "2491",
        "importance": "urban",
        "is_in": "Trento, Trentino-Alto Adige, Italy",
        "name": "Viezzena",
        "natural": "peak",
        "wikidata": "Q18785678",
        "wikipedia": "it:Viezzena"
      },
      "geometry": {
        "type": "Point",
        "coordinates": [
          11.6751093,
          46.3376652
        ]
      },
      "id": "node/253473249"
    },
    {
      "type": "Feature",
      "properties": {
        "@id": "node/253480188",
        "ele": "2301",
        "is_in": "Moena, Trento, Trentino-Alto Adige, Italy",
        "name": "Sas de Mezdì",
        "natural": "peak"
      },
      "geometry": {
        "type": "Point",
        "coordinates": [
          11.6704242,
          46.3562573
        ]
      },
      "id": "node/253480188"
    },
    {
      "type": "Feature",
      "properties": {
        "@id": "node/267701251",
        "alt_name": "Dos Trento",
        "ele": "309",
        "importance": "regional",
        "loc_name": "Dòs Trènt",
        "name": "Doss Trento",
        "natural": "peak",
        "old_name": "Monte Verruca",
        "wikidata": "Q3714444",
        "wikipedia": "it:Doss Trento"
      },
      "geometry": {
        "type": "Point",
        "coordinates": [
          11.1115772,
          46.0727482
        ]
      },
      "id": "node/267701251"
    },
    {
      "type": "Feature",
      "properties": {
        "@id": "node/267702463",
        "ele": "576",
        "importance": "suburban",
        "name": "Dosso Sant'Agata",
        "natural": "peak",
        "wikidata": "Q3714461",
        "wikipedia": "it:Dosso Sant'Agata"
      },
      "geometry": {
        "type": "Point",
        "coordinates": [
          11.1583497,
          46.0704845
        ]
      },
      "id": "node/267702463"
    },
    {
      "type": "Feature",
      "properties": {
        "@id": "node/267702683",
        "ele": "460",
        "importance": "suburban",
        "name": "Dosso San Rocco",
        "natural": "peak",
        "wikidata": "Q3714464"
      },
      "geometry": {
        "type": "Point",
        "coordinates": [
          11.141443,
          46.0336672
        ]
      },
      "id": "node/267702683"
    },
    {
      "type": "Feature",
      "properties": {
        "@id": "node/267976756",
        "ele": "2493",
        "importance": "urban",
        "name": "Pala di Santa",
        "name:de": "Zanggenberg",
        "natural": "peak",
        "wikidata": "Q146899",
        "wikipedia": "it:Pala di Santa"
      },
      "geometry": {
        "type": "Point",
        "coordinates": [
          11.5123106,
          46.3458524
        ]
      },
      "id": "node/267976756"
    },
    {
      "type": "Feature",
      "properties": {
        "@id": "node/267976758",
        "ele": "2077",
        "importance": "suburban",
        "name": "Cugola",
        "natural": "peak",
        "source:ele": "http://lazarus.elte.hu/hun/digkonyv/topo/200e/29-46.jpg"
      },
      "geometry": {
        "type": "Point",
        "coordinates": [
          11.4317083,
          46.3241664
        ]
      },
      "id": "node/267976758"
    },
    {
      "type": "Feature",
      "properties": {
        "@id": "node/267976794",
        "ele": "1704",
        "importance": "suburban",
        "name": "Cucal",
        "natural": "peak",
        "source:ele": "http://lazarus.elte.hu/hun/digkonyv/topo/200e/29-46.jpg"
      },
      "geometry": {
        "type": "Point",
        "coordinates": [
          11.485938,
          46.3097826
        ]
      },
      "id": "node/267976794"
    },
    {
      "type": "Feature",
      "properties": {
        "@id": "node/279295823",
        "ele": "2186",
        "is_in": "Moena, Trento, Trentino-Alto Adige, Italy",
        "name": "Sas da Ciamp",
        "natural": "peak"
      },
      "geometry": {
        "type": "Point",
        "coordinates": [
          11.62491,
          46.37956
        ]
      },
      "id": "node/279295823"
    },
    {
      "type": "Feature",
      "properties": {
        "@id": "node/279297793",
        "ele": "2180",
        "name": "La Forcella di Pelenzana",
        "natural": "peak",
        "wikidata": "Q3898884",
        "wikipedia": "it:Pelenzana"
      },
      "geometry": {
        "type": "Point",
        "coordinates": [
          11.571878,
          46.310669
        ]
      },
      "id": "node/279297793"
    },
    {
      "type": "Feature",
      "properties": {
        "@id": "node/281163095",
        "ele": "2598",
        "importance": "suburban",
        "name": "Cima delle Stellune",
        "natural": "peak",
        "source:ele": "3rd Military Mapping Survey of Austria-Hungary",
        "wikidata": "Q17625363",
        "wikipedia": "it:Cima delle Stellune"
      },
      "geometry": {
        "type": "Point",
        "coordinates": [
          11.5107524,
          46.1994171
        ]
      },
      "id": "node/281163095"
    },
    {
      "type": "Feature",
      "properties": {
        "@id": "node/281168694",
        "ele": "2481",
        "importance": "urban",
        "name": "Pala del Cardinal",
        "natural": "peak",
        "source:ele": "Kompass 626 map",
        "wikidata": "Q30890768",
        "wikipedia": "it:Cardinal (monte)"
      },
      "geometry": {
        "type": "Point",
        "coordinates": [
          11.6018329,
          46.2439106
        ]
      },
      "id": "node/281168694"
    },
    {
      "type": "Feature",
      "properties": {
        "@id": "node/281996516",
        "ele": "2489",
        "importance": "regional",
        "name": "Monte Croce",
        "name:de": "Kraizspitz",
        "natural": "peak",
        "source:ele": "3rd Military Mapping Survey of Austria-Hungary",
        "summit:cross": "yes",
        "summit:register": "yes",
        "wikidata": "Q3861496",
        "wikipedia": "it:Monte Croce (Trentino-Alto Adige)"
      },
      "geometry": {
        "type": "Point",
        "coordinates": [
          11.3924897,
          46.1693463
        ]
      },
      "id": "node/281996516"
    },
    {
      "type": "Feature",
      "properties": {
        "@id": "node/281998557",
        "ele": "2225",
        "importance": "suburban",
        "name": "Cima Fornace",
        "natural": "peak",
        "source:ele": "Kompass 626 map"
      },
      "geometry": {
        "type": "Point",
        "coordinates": [
          11.4192871,
          46.1647739
        ]
      },
      "id": "node/281998557"
    },
    {
      "type": "Feature",
      "properties": {
        "@id": "node/281999804",
        "ele": "2112",
        "importance": "suburban",
        "name": "Monte Cadino",
        "natural": "peak",
        "source:ele": "Kompass 626 map"
      },
      "geometry": {
        "type": "Point",
        "coordinates": [
          11.4209121,
          46.1676536
        ]
      },
      "id": "node/281999804"
    },
    {
      "type": "Feature",
      "properties": {
        "@id": "node/282201814",
        "ele": "2229",
        "importance": "regional",
        "name": "Paion del Cermis",
        "natural": "peak",
        "source:ele": "3rd Military Mapping Survey of Austria-Hungary",
        "wikidata": "Q2576260",
        "wikipedia": "it:Alpe Cermis"
      },
      "geometry": {
        "type": "Point",
        "coordinates": [
          11.5035518,
          46.2413696
        ]
      },
      "id": "node/282201814"
    },
    {
      "type": "Feature",
      "properties": {
        "@id": "node/282202400",
        "ele": "2401",
        "name": "Cimon del To della Trappola",
        "natural": "peak"
      },
      "geometry": {
        "type": "Point",
        "coordinates": [
          11.5005337,
          46.2315971
        ]
      },
      "id": "node/282202400"
    },
    {
      "type": "Feature",
      "properties": {
        "@id": "node/282202699",
        "ele": "2560",
        "importance": "suburban",
        "name": "Cimon di Lasteolo",
        "natural": "peak",
        "source:ele": "Kompass 626 map"
      },
      "geometry": {
        "type": "Point",
        "coordinates": [
          11.5446191,
          46.2168382
        ]
      },
      "id": "node/282202699"
    },
    {
      "type": "Feature",
      "properties": {
        "@id": "node/282202872",
        "ele": "2549",
        "importance": "urban",
        "name": "Cima Litegosa",
        "natural": "peak",
        "source:ele": "Kompass 626 map",
        "wikidata": "Q3676741",
        "wikipedia": "it:Cima Litegosa"
      },
      "geometry": {
        "type": "Point",
        "coordinates": [
          11.558882,
          46.2253087
        ]
      },
      "id": "node/282202872"
    },
    {
      "type": "Feature",
      "properties": {
        "@id": "node/285976286",
        "ele": "1955",
        "name": "Dosso di Costalta",
        "natural": "peak",
        "wikidata": "Q3714463",
        "wikipedia": "it:Dosso di Costalta"
      },
      "geometry": {
        "type": "Point",
        "coordinates": [
          11.2891682,
          46.1321025
        ]
      },
      "id": "node/285976286"
    },
    {
      "type": "Feature",
      "properties": {
        "@id": "node/286281497",
        "alt_name:de": "Westliche Latemarspitze",
        "alt_name:it": "Torre Diamantidi",
        "ele": "2842",
        "importance": "regional",
        "loc_name:de": "Großer Latemarturm",
        "name": "Cimon del Latemar - Diamantiditurm",
        "name:de": "Diamantiditurm",
        "name:en": "Diamantidi Tower",
        "name:it": "Cimon del Latemar",
        "natural": "peak",
        "old_name": "Latemar-Hauptturm",
        "prominence": "1097",
        "wikidata": "Q593456",
        "wikipedia": "it:Cimon del Latemar"
      },
      "geometry": {
        "type": "Point",
        "coordinates": [
          11.5750434,
          46.3810697
        ]
      },
      "id": "node/286281497"
    },
    {
      "type": "Feature",
      "properties": {
        "@id": "node/286954450",
        "ele": "2368",
        "importance": "suburban",
        "name": "Monte Valpiana",
        "natural": "peak",
        "source:ele": "IGM Trentino e Carta Topografica Tabacco 058 ed.2015"
      },
      "geometry": {
        "type": "Point",
        "coordinates": [
          11.480299,
          46.1629253
        ]
      },
      "id": "node/286954450"
    },
    {
      "type": "Feature",
      "properties": {
        "@id": "node/287990721",
        "ele": "2181",
        "name": "Monte Parol",
        "natural": "peak"
      },
      "geometry": {
        "type": "Point",
        "coordinates": [
          10.9313397,
          46.3960196
        ]
      },
      "id": "node/287990721"
    },
    {
      "type": "Feature",
      "properties": {
        "@id": "node/289247845",
        "alt_name": "Dòs Pìciol",
        "ele": "1075",
        "loc_name": "Dòs de Miöla",
        "name": "Dosso di Miola",
        "natural": "peak",
        "tourism": "viewpoint"
      },
      "geometry": {
        "type": "Point",
        "coordinates": [
          11.2504348,
          46.1305032
        ]
      },
      "id": "node/289247845"
    },
    {
      "type": "Feature",
      "properties": {
        "@id": "node/289618116",
        "ele": "1603",
        "name": "Monte Finonchio",
        "natural": "peak",
        "wikidata": "Q3861543",
        "wikipedia": "it:Monte Finonchio"
      },
      "geometry": {
        "type": "Point",
        "coordinates": [
          11.1162205,
          45.9004283
        ]
      },
      "id": "node/289618116"
    },
    {
      "type": "Feature",
      "properties": {
        "@id": "node/289868279",
        "alt_name": "Rujoch",
        "ele": "2414",
        "importance": "regional",
        "name": "Monte Ruioch",
        "natural": "peak",
        "wikidata": "Q31635916"
      },
      "geometry": {
        "type": "Point",
        "coordinates": [
          11.3635196,
          46.1540984
        ]
      },
      "id": "node/289868279"
    },
    {
      "type": "Feature",
      "properties": {
        "@id": "node/290885237",
        "ele": "2045",
        "name": "Antecima Cornetto",
        "natural": "peak"
      },
      "geometry": {
        "type": "Point",
        "coordinates": [
          11.1866036,
          45.9409544
        ]
      },
      "id": "node/290885237"
    },
    {
      "type": "Feature",
      "properties": {
        "@id": "node/292092355",
        "ele": "1416",
        "name": "Solombo",
        "natural": "peak"
      },
      "geometry": {
        "type": "Point",
        "coordinates": [
          11.4163781,
          46.3030588
        ]
      },
      "id": "node/292092355"
    },
    {
      "type": "Feature",
      "properties": {
        "@id": "node/292238630",
        "ele": "2550",
        "name": "Cima Undici",
        "natural": "peak"
      },
      "geometry": {
        "type": "Point",
        "coordinates": [
          11.7129645,
          46.402431
        ]
      },
      "id": "node/292238630"
    },
    {
      "type": "Feature",
      "properties": {
        "@id": "node/297049604",
        "ele": "376",
        "name": "Monte Brione",
        "natural": "peak",
        "wikidata": "Q1665141"
      },
      "geometry": {
        "type": "Point",
        "coordinates": [
          10.8745873,
          45.8849808
        ]
      },
      "id": "node/297049604"
    },
    {
      "type": "Feature",
      "properties": {
        "@id": "node/298120762",
        "ele": "2343",
        "name": "Spadalone",
        "natural": "peak"
      },
      "geometry": {
        "type": "Point",
        "coordinates": [
          10.7163162,
          46.1399965
        ]
      },
      "id": "node/298120762"
    },
    {
      "type": "Feature",
      "properties": {
        "@id": "node/298291892",
        "ele": "2582",
        "name": "Cima Tamalè",
        "natural": "peak"
      },
      "geometry": {
        "type": "Point",
        "coordinates": [
          10.6842505,
          46.1824426
        ]
      },
      "id": "node/298291892"
    },
    {
      "type": "Feature",
      "properties": {
        "@id": "node/298291895",
        "ele": "3015",
        "loc_name": "Cimon de le Gere",
        "name": "Cimon delle Gere",
        "natural": "peak",
        "wikidata": "Q31636641"
      },
      "geometry": {
        "type": "Point",
        "coordinates": [
          10.6638657,
          46.1898703
        ]
      },
      "id": "node/298291895"
    },
    {
      "type": "Feature",
      "properties": {
        "@id": "node/298291974",
        "ele": "3402",
        "name": "Corno di Cavento",
        "natural": "peak",
        "wikidata": "Q3693772",
        "wikipedia": "it:Corno di Cavento"
      },
      "geometry": {
        "type": "Point",
        "coordinates": [
          10.5859015,
          46.1352906
        ]
      },
      "id": "node/298291974"
    },
    {
      "type": "Feature",
      "properties": {
        "@id": "node/298291985",
        "ele": "3036",
        "name": "Lobbia di Mezzo",
        "natural": "peak"
      },
      "geometry": {
        "type": "Point",
        "coordinates": [
          10.5709738,
          46.1795614
        ]
      },
      "id": "node/298291985"
    },
    {
      "type": "Feature",
      "properties": {
        "@id": "node/301458487",
        "ele": "841",
        "name": "Monte Tombio",
        "natural": "peak"
      },
      "geometry": {
        "type": "Point",
        "coordinates": [
          10.8242256,
          45.9088496
        ]
      },
      "id": "node/301458487"
    },
    {
      "type": "Feature",
      "properties": {
        "@id": "node/301563250",
        "ele": "1803",
        "name": "Monte Misone",
        "natural": "peak",
        "prominence": "1040"
      },
      "geometry": {
        "type": "Point",
        "coordinates": [
          10.8336682,
          45.9552217
        ]
      },
      "id": "node/301563250"
    },
    {
      "type": "Feature",
      "properties": {
        "@id": "node/304859594",
        "ele": "2259",
        "name": "Cima Carega",
        "natural": "peak",
        "prominence": "1185",
        "summit:cross": "yes",
        "wikidata": "Q3676726",
        "wikipedia": "it:Cima Carega"
      },
      "geometry": {
        "type": "Point",
        "coordinates": [
          11.1300888,
          45.7239595
        ]
      },
      "id": "node/304859594"
    },
    {
      "type": "Feature",
      "properties": {
        "@id": "node/306134396",
        "ele": "2140",
        "importance": "regional",
        "name": "Dos d'Abramo",
        "natural": "peak"
      },
      "geometry": {
        "type": "Point",
        "coordinates": [
          11.0384036,
          45.9898734
        ]
      },
      "id": "node/306134396"
    },
    {
      "type": "Feature",
      "properties": {
        "@id": "node/306134397",
        "ele": "2102",
        "importance": "regional",
        "name": "Cima Verde",
        "natural": "peak",
        "wikidata": "Q31634685"
      },
      "geometry": {
        "type": "Point",
        "coordinates": [
          11.0448082,
          45.9958557
        ]
      },
      "id": "node/306134397"
    },
    {
      "type": "Feature",
      "properties": {
        "@id": "node/307253108",
        "direction": "0-360",
        "ele": "2442",
        "name": "Pizzo Gallino",
        "natural": "peak",
        "reg_name": "Piz Galin",
        "summit:cross": "yes",
        "summit:register": "yes",
        "tourism": "viewpoint",
        "wikidata": "Q3905936",
        "wikipedia": "it:Piz Galin"
      },
      "geometry": {
        "type": "Point",
        "coordinates": [
          10.9624745,
          46.1776827
        ]
      },
      "id": "node/307253108"
    },
    {
      "type": "Feature",
      "properties": {
        "@id": "node/307268081",
        "ele": "2678",
        "name": "Monte Nambino",
        "natural": "peak",
        "wikidata": "Q31644747"
      },
      "geometry": {
        "type": "Point",
        "coordinates": [
          10.785193,
          46.2551843
        ]
      },
      "id": "node/307268081"
    },
    {
      "type": "Feature",
      "properties": {
        "@id": "node/309337907",
        "ele": "2020",
        "name": "Cima Levante",
        "natural": "peak",
        "wikidata": "Q31640361"
      },
      "geometry": {
        "type": "Point",
        "coordinates": [
          11.0949074,
          45.7436042
        ]
      },
      "id": "node/309337907"
    },
    {
      "type": "Feature",
      "properties": {
        "@id": "node/309514870",
        "ele": "1857",
        "name": "Monte Zugna",
        "natural": "peak",
        "summit:cross": "yes",
        "wikidata": "Q31638098"
      },
      "geometry": {
        "type": "Point",
        "coordinates": [
          11.068885,
          45.7994036
        ]
      },
      "id": "node/309514870"
    },
    {
      "type": "Feature",
      "properties": {
        "@id": "node/310199149",
        "ele": "2054",
        "name": "Monte Stivo",
        "natural": "peak",
        "summit:cross": "yes",
        "wikidata": "Q1945934",
        "wikipedia": "it:Monte Stivo"
      },
      "geometry": {
        "type": "Point",
        "coordinates": [
          10.9636915,
          45.9201274
        ]
      },
      "id": "node/310199149"
    },
    {
      "type": "Feature",
      "properties": {
        "@id": "node/311844814",
        "alt_name": "Pizzo di Levico",
        "ele": "1908",
        "name": "Cima Vezzena",
        "name:cim": "Vesan",
        "name:it": "Cima Vezzena",
        "natural": "peak",
        "wikidata": "Q3676777",
        "wikipedia": "it:Cima Vezzena"
      },
      "geometry": {
        "type": "Point",
        "coordinates": [
          11.3426214,
          45.9790546
        ]
      },
      "id": "node/311844814"
    },
    {
      "type": "Feature",
      "properties": {
        "@id": "node/312992395",
        "ele": "390",
        "name": "Croce di Ceniga",
        "natural": "peak"
      },
      "geometry": {
        "type": "Point",
        "coordinates": [
          10.8965426,
          45.9461516
        ]
      },
      "id": "node/312992395"
    },
    {
      "type": "Feature",
      "properties": {
        "@id": "node/313155440",
        "ele": "1618",
        "name": "Monte Biaena",
        "natural": "peak",
        "wikidata": "Q3861230",
        "wikipedia": "it:Monte Biaena"
      },
      "geometry": {
        "type": "Point",
        "coordinates": [
          10.970971,
          45.8827083
        ]
      },
      "id": "node/313155440"
    },
    {
      "type": "Feature",
      "properties": {
        "@id": "node/314737602",
        "ele": "1772",
        "name": "Coni Zugna",
        "natural": "peak",
        "wikidata": "Q3686973",
        "wikipedia": "it:Coni Zugna"
      },
      "geometry": {
        "type": "Point",
        "coordinates": [
          11.0690503,
          45.7958516
        ]
      },
      "id": "node/314737602"
    },
    {
      "type": "Feature",
      "properties": {
        "@id": "node/320987768",
        "ele": "363",
        "name": "Dos dele Strie",
        "natural": "peak"
      },
      "geometry": {
        "type": "Point",
        "coordinates": [
          10.8296877,
          45.9188197
        ]
      },
      "id": "node/320987768"
    },
    {
      "type": "Feature",
      "properties": {
        "@id": "node/323258540",
        "ele": "2103",
        "man_made": "survey_point",
        "name": "Monte Spinale",
        "natural": "peak"
      },
      "geometry": {
        "type": "Point",
        "coordinates": [
          10.847831,
          46.2227384
        ]
      },
      "id": "node/323258540"
    },
    {
      "type": "Feature",
      "properties": {
        "@id": "node/330072190",
        "ele": "1908",
        "name": "Cima Sera",
        "natural": "peak"
      },
      "geometry": {
        "type": "Point",
        "coordinates": [
          10.7897911,
          46.0229553
        ]
      },
      "id": "node/330072190"
    },
    {
      "type": "Feature",
      "properties": {
        "@id": "node/358157914",
        "ele": "2112",
        "name": "Col Santo",
        "natural": "peak",
        "wikidata": "Q31635881"
      },
      "geometry": {
        "type": "Point",
        "coordinates": [
          11.1506659,
          45.8325479
        ]
      },
      "id": "node/358157914"
    },
    {
      "type": "Feature",
      "properties": {
        "@id": "node/362379104",
        "ele": "2958",
        "name": "Sasplat - Plattkofel - Sasso Piatto",
        "name:de": "Plattkofel",
        "name:it": "Sasso Piatto",
        "name:lld": "Sasplat",
        "natural": "peak",
        "summit:cross": "yes",
        "wikidata": "Q365711",
        "wikipedia": "it:Sassopiatto"
      },
      "geometry": {
        "type": "Point",
        "coordinates": [
          11.7164217,
          46.513212
        ]
      },
      "id": "node/362379104"
    },
    {
      "type": "Feature",
      "properties": {
        "@id": "node/373824653",
        "ele": "945",
        "fixme": "position",
        "name": "Monte Piano",
        "natural": "peak",
        "ref": "Montepiano"
      },
      "geometry": {
        "type": "Point",
        "coordinates": [
          11.2015132,
          46.124272
        ]
      },
      "id": "node/373824653"
    },
    {
      "type": "Feature",
      "properties": {
        "@id": "node/374292023",
        "ele": "1096",
        "importance": "regional",
        "name": "Monte Calisio",
        "natural": "peak",
        "wikidata": "Q3861272",
        "wikipedia": "it:Monte Calisio"
      },
      "geometry": {
        "type": "Point",
        "coordinates": [
          11.1434237,
          46.0981134
        ]
      },
      "id": "node/374292023"
    },
    {
      "type": "Feature",
      "properties": {
        "@id": "node/388105705",
        "ele": "2859",
        "name": "Stablel",
        "natural": "peak",
        "wikidata": "Q31636627"
      },
      "geometry": {
        "type": "Point",
        "coordinates": [
          10.6035723,
          46.1770801
        ]
      },
      "id": "node/388105705"
    },
    {
      "type": "Feature",
      "properties": {
        "@id": "node/388111946",
        "ele": "2968",
        "name": "Ago Mingo",
        "natural": "peak",
        "wikidata": "Q31636613"
      },
      "geometry": {
        "type": "Point",
        "coordinates": [
          10.6006377,
          46.175598
        ]
      },
      "id": "node/388111946"
    },
    {
      "type": "Feature",
      "properties": {
        "@id": "node/388112267",
        "ele": "3064",
        "name": "Punta Orco",
        "natural": "peak"
      },
      "geometry": {
        "type": "Point",
        "coordinates": [
          10.5968144,
          46.1722058
        ]
      },
      "id": "node/388112267"
    },
    {
      "type": "Feature",
      "properties": {
        "@id": "node/388118380",
        "ele": "2870",
        "name": "Monte Coel",
        "natural": "peak"
      },
      "geometry": {
        "type": "Point",
        "coordinates": [
          10.6262626,
          46.1267407
        ]
      },
      "id": "node/388118380"
    },
    {
      "type": "Feature",
      "properties": {
        "@id": "node/388118382",
        "ele": "2810",
        "name": "Cima di Pra Vecchio",
        "natural": "peak"
      },
      "geometry": {
        "type": "Point",
        "coordinates": [
          10.6308116,
          46.1274546
        ]
      },
      "id": "node/388118382"
    },
    {
      "type": "Feature",
      "properties": {
        "@id": "node/388118426",
        "ele": "2802",
        "name": "Cima degli Obici",
        "natural": "peak"
      },
      "geometry": {
        "type": "Point",
        "coordinates": [
          10.6380214,
          46.1282873
        ]
      },
      "id": "node/388118426"
    },
    {
      "type": "Feature",
      "properties": {
        "@id": "node/388119927",
        "ele": "2472",
        "name": "Monte Altar",
        "natural": "peak"
      },
      "geometry": {
        "type": "Point",
        "coordinates": [
          10.6497373,
          46.1181145
        ]
      },
      "id": "node/388119927"
    },
    {
      "type": "Feature",
      "properties": {
        "@id": "node/388120071",
        "ele": "2488",
        "name": "Fornace",
        "natural": "peak"
      },
      "geometry": {
        "type": "Point",
        "coordinates": [
          10.6756581,
          46.1241233
        ]
      },
      "id": "node/388120071"
    },
    {
      "type": "Feature",
      "properties": {
        "@id": "node/388120131",
        "natural": "peak"
      },
      "geometry": {
        "type": "Point",
        "coordinates": [
          10.6993474,
          46.1239448
        ]
      },
      "id": "node/388120131"
    },
    {
      "type": "Feature",
      "properties": {
        "@id": "node/388120151",
        "ele": "2427",
        "name": "La Costaccia",
        "natural": "peak"
      },
      "geometry": {
        "type": "Point",
        "coordinates": [
          10.7055272,
          46.1233499
        ]
      },
      "id": "node/388120151"
    },
    {
      "type": "Feature",
      "properties": {
        "@id": "node/388120154",
        "natural": "peak"
      },
      "geometry": {
        "type": "Point",
        "coordinates": [
          10.6862153,
          46.120762
        ]
      },
      "id": "node/388120154"
    },
    {
      "type": "Feature",
      "properties": {
        "@id": "node/388120155",
        "natural": "peak"
      },
      "geometry": {
        "type": "Point",
        "coordinates": [
          10.6796922,
          46.130518
        ]
      },
      "id": "node/388120155"
    },
    {
      "type": "Feature",
      "properties": {
        "@id": "node/388120219",
        "natural": "peak"
      },
      "geometry": {
        "type": "Point",
        "coordinates": [
          10.6777395,
          46.1379454
        ]
      },
      "id": "node/388120219"
    },
    {
      "type": "Feature",
      "properties": {
        "@id": "node/388120675",
        "ele": "2216",
        "name": "Stavel",
        "natural": "peak"
      },
      "geometry": {
        "type": "Point",
        "coordinates": [
          10.6698646,
          46.1517788
        ]
      },
      "id": "node/388120675"
    },
    {
      "type": "Feature",
      "properties": {
        "@id": "node/388120823",
        "ele": "2405",
        "name": "Cima di Om di Lares",
        "natural": "peak"
      },
      "geometry": {
        "type": "Point",
        "coordinates": [
          10.6610669,
          46.1454163
        ]
      },
      "id": "node/388120823"
    },
    {
      "type": "Feature",
      "properties": {
        "@id": "node/391038683",
        "ele": "998",
        "importance": "urban",
        "name": "Cima Celva",
        "natural": "peak",
        "tourism": "viewpoint"
      },
      "geometry": {
        "type": "Point",
        "coordinates": [
          11.1840592,
          46.073892
        ]
      },
      "id": "node/391038683"
    },
    {
      "type": "Feature",
      "properties": {
        "@id": "node/393892582",
        "ele": "3346",
        "fixme": "In Österreich heißt dieser Berg tatsächlich \"Köllkuppe\". In Deutschland aber wird er meines Wissens oft auch übersetzt \"Murmeltierspitze\" genannt?!? Bitte prüfen!",
        "name": "Köllkuppe - Cima Marmotta",
        "name:at": "Köllkuppe",
        "name:de": "Köllkuppe",
        "natural": "peak",
        "wikidata": "Q1092002"
      },
      "geometry": {
        "type": "Point",
        "coordinates": [
          10.6830677,
          46.4499006
        ]
      },
      "id": "node/393892582"
    },
    {
      "type": "Feature",
      "properties": {
        "@id": "node/394921976",
        "ele": "3386",
        "name": "Cima Venezia - Veneziaspitze",
        "name:de": "Veneziaspitze",
        "name:it": "Cima Venezia",
        "natural": "peak",
        "wikidata": "Q2512894",
        "wikipedia": "it:Cima Venezia"
      },
      "geometry": {
        "type": "Point",
        "coordinates": [
          10.6894503,
          46.4538768
        ]
      },
      "id": "node/394921976"
    },
    {
      "type": "Feature",
      "properties": {
        "@id": "node/410960135",
        "ele": "1730",
        "name": "Monte Corno",
        "natural": "peak"
      },
      "geometry": {
        "type": "Point",
        "coordinates": [
          10.7113836,
          45.8734174
        ]
      },
      "id": "node/410960135"
    },
    {
      "type": "Feature",
      "properties": {
        "@id": "node/411075238",
        "ele": "965",
        "name": "Monte Faè",
        "natural": "peak",
        "wikidata": "Q31221251"
      },
      "geometry": {
        "type": "Point",
        "coordinates": [
          10.9786483,
          45.8681265
        ]
      },
      "id": "node/411075238"
    },
    {
      "type": "Feature",
      "properties": {
        "@id": "node/411553130",
        "ele": "2138",
        "man_made": "cairn",
        "name": "Corno di Pichea",
        "natural": "peak"
      },
      "geometry": {
        "type": "Point",
        "coordinates": [
          10.7700398,
          45.9449645
        ]
      },
      "id": "node/411553130"
    },
    {
      "type": "Feature",
      "properties": {
        "@id": "node/411553131",
        "ele": "1879",
        "name": "Mazza di Pichea",
        "natural": "peak",
        "summit:cross": "yes",
        "summit:register": "yes"
      },
      "geometry": {
        "type": "Point",
        "coordinates": [
          10.7639085,
          45.9322342
        ]
      },
      "id": "node/411553131"
    },
    {
      "type": "Feature",
      "properties": {
        "@id": "node/419891128",
        "ele": "2745",
        "name": "Cima Bocche",
        "natural": "peak",
        "wikidata": "Q3676721",
        "wikipedia": "it:Cima Bocche"
      },
      "geometry": {
        "type": "Point",
        "coordinates": [
          11.7526725,
          46.3542346
        ]
      },
      "id": "node/419891128"
    },
    {
      "type": "Feature",
      "properties": {
        "@id": "node/419898733",
        "ele": "2697",
        "name": "Cima Juribrutto",
        "natural": "peak"
      },
      "geometry": {
        "type": "Point",
        "coordinates": [
          11.765161,
          46.3594001
        ]
      },
      "id": "node/419898733"
    },
    {
      "type": "Feature",
      "properties": {
        "@id": "node/429600779",
        "ele": "2618",
        "name": "Torrione delle Rocchette",
        "natural": "peak"
      },
      "geometry": {
        "type": "Point",
        "coordinates": [
          10.646867,
          46.1901689
        ]
      },
      "id": "node/429600779"
    },
    {
      "type": "Feature",
      "properties": {
        "@id": "node/429601024",
        "ele": "3285",
        "name": "Monte Botteri",
        "natural": "peak"
      },
      "geometry": {
        "type": "Point",
        "coordinates": [
          10.6545059,
          46.2107073
        ]
      },
      "id": "node/429601024"
    },
    {
      "type": "Feature",
      "properties": {
        "@id": "node/429601035",
        "ele": "3289",
        "name": "Cimone delle Rocchette",
        "natural": "peak"
      },
      "geometry": {
        "type": "Point",
        "coordinates": [
          10.6563175,
          46.2017497
        ]
      },
      "id": "node/429601035"
    },
    {
      "type": "Feature",
      "properties": {
        "@id": "node/429615595",
        "ele": "2935",
        "name": "Pietra Grande",
        "natural": "peak",
        "wikidata": "Q692404",
        "wikipedia": "it:Cima Pietra Grande"
      },
      "geometry": {
        "type": "Point",
        "coordinates": [
          10.896238,
          46.2313343
        ]
      },
      "id": "node/429615595"
    },
    {
      "type": "Feature",
      "properties": {
        "@id": "node/429615638",
        "ele": "2323",
        "name": "Pala dei Mughi",
        "natural": "peak"
      },
      "geometry": {
        "type": "Point",
        "coordinates": [
          10.8263073,
          46.150567
        ]
      },
      "id": "node/429615638"
    },
    {
      "type": "Feature",
      "properties": {
        "@id": "node/429616998",
        "ele": "2935",
        "name": "Sass de la Stria",
        "natural": "peak"
      },
      "geometry": {
        "type": "Point",
        "coordinates": [
          10.6099197,
          46.1194301
        ]
      },
      "id": "node/429616998"
    },
    {
      "type": "Feature",
      "properties": {
        "@id": "node/433333837",
        "ele": "3356",
        "name": "Dritte Veneziaspitze - Cima Venezia III",
        "name:de": "Dritte Veneziaspitze",
        "name:it": "Cima Venezia III",
        "natural": "peak"
      },
      "geometry": {
        "type": "Point",
        "coordinates": [
          10.6956306,
          46.4580371
        ]
      },
      "id": "node/433333837"
    },
    {
      "type": "Feature",
      "properties": {
        "@id": "node/433581099",
        "ele": "2271",
        "name": "Corno Alto",
        "natural": "peak",
        "wikidata": "Q31636766"
      },
      "geometry": {
        "type": "Point",
        "coordinates": [
          10.7224716,
          46.1450307
        ]
      },
      "id": "node/433581099"
    },
    {
      "type": "Feature",
      "properties": {
        "@id": "node/434149454",
        "ele": "2001",
        "name": "Monte Testo",
        "natural": "peak"
      },
      "geometry": {
        "type": "Point",
        "coordinates": [
          11.1388487,
          45.8183141
        ]
      },
      "id": "node/434149454"
    },
    {
      "type": "Feature",
      "properties": {
        "@id": "node/448931521",
        "ele": "2887",
        "name": "Cima Scalieret",
        "name:it": "Cima Scalieret",
        "natural": "peak",
        "summit:cross": "yes",
        "wikidata": "Q22691574"
      },
      "geometry": {
        "type": "Point",
        "coordinates": [
          11.6444448,
          46.4633351
        ]
      },
      "id": "node/448931521"
    },
    {
      "type": "Feature",
      "properties": {
        "@id": "node/450174244",
        "ele": "859",
        "name": "Nodice",
        "natural": "peak"
      },
      "geometry": {
        "type": "Point",
        "coordinates": [
          10.8222111,
          45.8568976
        ]
      },
      "id": "node/450174244"
    },
    {
      "type": "Feature",
      "properties": {
        "@id": "node/450174246",
        "ele": "1991",
        "man_made": "cross",
        "name": "Cima Parì",
        "natural": "peak"
      },
      "geometry": {
        "type": "Point",
        "coordinates": [
          10.7662014,
          45.9059018
        ]
      },
      "id": "node/450174246"
    },
    {
      "type": "Feature",
      "properties": {
        "@id": "node/450174247",
        "ele": "1887",
        "name": "Cima Sclapa",
        "natural": "peak"
      },
      "geometry": {
        "type": "Point",
        "coordinates": [
          10.7729013,
          45.9024782
        ]
      },
      "id": "node/450174247"
    },
    {
      "type": "Feature",
      "properties": {
        "@id": "node/450174248",
        "ele": "1782",
        "name": "Monte Tomeabrù",
        "natural": "peak"
      },
      "geometry": {
        "type": "Point",
        "coordinates": [
          10.7529128,
          45.9032485
        ]
      },
      "id": "node/450174248"
    },
    {
      "type": "Feature",
      "properties": {
        "@id": "node/450174249",
        "cross:material": "concrete",
        "cross:start_date": "1966-08",
        "ele": "1793",
        "height": "3",
        "name": "Monte Caret",
        "natural": "peak",
        "summit:cross": "yes"
      },
      "geometry": {
        "type": "Point",
        "coordinates": [
          10.7560462,
          45.9101688
        ]
      },
      "id": "node/450174249"
    },
    {
      "type": "Feature",
      "properties": {
        "@id": "node/450591939",
        "alt_name": "Cima Doie",
        "ele": "2383",
        "name": "Cima di Bondolo",
        "natural": "peak"
      },
      "geometry": {
        "type": "Point",
        "coordinates": [
          10.5072663,
          45.9250156
        ]
      },
      "id": "node/450591939"
    },
    {
      "type": "Feature",
      "properties": {
        "@id": "node/456036439",
        "ele": "2749",
        "name": "Monte Listino",
        "natural": "peak"
      },
      "geometry": {
        "type": "Point",
        "coordinates": [
          10.4533655,
          45.9768256
        ]
      },
      "id": "node/456036439"
    },
    {
      "type": "Feature",
      "properties": {
        "@id": "node/457133495",
        "ele": "1518",
        "name": "Corno della Paura",
        "natural": "peak"
      },
      "geometry": {
        "type": "Point",
        "coordinates": [
          10.9376782,
          45.7646841
        ]
      },
      "id": "node/457133495"
    },
    {
      "type": "Feature",
      "properties": {
        "@id": "node/457518119",
        "ele": "2220",
        "name": "Dente Italiano",
        "natural": "peak",
        "wikidata": "Q3705524",
        "wikipedia": "it:Dente Italiano"
      },
      "geometry": {
        "type": "Point",
        "coordinates": [
          11.1759822,
          45.7943208
        ]
      },
      "id": "node/457518119"
    },
    {
      "type": "Feature",
      "properties": {
        "@id": "node/457518120",
        "ele": "2203",
        "name": "Dente Austriaco",
        "natural": "peak",
        "wikidata": "Q66685063"
      },
      "geometry": {
        "type": "Point",
        "coordinates": [
          11.1749185,
          45.7974035
        ]
      },
      "id": "node/457518120"
    },
    {
      "type": "Feature",
      "properties": {
        "@id": "node/457885188",
        "ele": "1837",
        "name": "Cima Durmont",
        "natural": "peak"
      },
      "geometry": {
        "type": "Point",
        "coordinates": [
          10.7595454,
          46.0832406
        ]
      },
      "id": "node/457885188"
    },
    {
      "type": "Feature",
      "properties": {
        "@id": "node/471615197",
        "ele": "2002",
        "name": "Doss dell'Anziana",
        "natural": "peak"
      },
      "geometry": {
        "type": "Point",
        "coordinates": [
          11.1449804,
          45.8384209
        ]
      },
      "id": "node/471615197"
    },
    {
      "type": "Feature",
      "properties": {
        "@id": "node/472136733",
        "ele": "2806",
        "name": "Roda di Vaèl - Rotwand",
        "name:de": "Rotwand",
        "natural": "peak",
        "summit:cross": "yes",
        "wikidata": "Q2169121",
        "wikipedia": "it:Roda di Vaèl"
      },
      "geometry": {
        "type": "Point",
        "coordinates": [
          11.6199047,
          46.4254208
        ]
      },
      "id": "node/472136733"
    },
    {
      "type": "Feature",
      "properties": {
        "@id": "node/472627387",
        "ele": "2708",
        "name": "Cima Serodoli",
        "natural": "peak"
      },
      "geometry": {
        "type": "Point",
        "coordinates": [
          10.7710904,
          46.2394463
        ]
      },
      "id": "node/472627387"
    },
    {
      "type": "Feature",
      "properties": {
        "@id": "node/472627446",
        "ele": "2819",
        "natural": "peak"
      },
      "geometry": {
        "type": "Point",
        "coordinates": [
          10.7611915,
          46.250286
        ]
      },
      "id": "node/472627446"
    },
    {
      "type": "Feature",
      "properties": {
        "@id": "node/474982851",
        "ele": "829",
        "name": "Croz de la Rocca",
        "natural": "peak"
      },
      "geometry": {
        "type": "Point",
        "coordinates": [
          11.2166567,
          46.0950769
        ]
      },
      "id": "node/474982851"
    },
    {
      "type": "Feature",
      "properties": {
        "@id": "node/474987188",
        "ele": "2003",
        "name": "Dossone",
        "natural": "peak"
      },
      "geometry": {
        "type": "Point",
        "coordinates": [
          10.7291836,
          46.1524635
        ]
      },
      "id": "node/474987188"
    },
    {
      "type": "Feature",
      "properties": {
        "@id": "node/475529768",
        "ele": "616",
        "name": "Tessara",
        "natural": "peak"
      },
      "geometry": {
        "type": "Point",
        "coordinates": [
          11.2315418,
          46.0786611
        ]
      },
      "id": "node/475529768"
    },
    {
      "type": "Feature",
      "properties": {
        "@id": "node/478978471",
        "alt_name": "La Paléta",
        "ele": "2171",
        "name": "Monte Cogne",
        "natural": "peak"
      },
      "geometry": {
        "type": "Point",
        "coordinates": [
          11.3677123,
          46.1943544
        ]
      },
      "id": "node/478978471"
    },
    {
      "type": "Feature",
      "properties": {
        "@id": "node/478978509",
        "ele": "2292",
        "name": "Cimon del Tres",
        "natural": "peak"
      },
      "geometry": {
        "type": "Point",
        "coordinates": [
          11.3972251,
          46.2053277
        ]
      },
      "id": "node/478978509"
    },
    {
      "type": "Feature",
      "properties": {
        "@id": "node/478978631",
        "ele": "1547",
        "name": "Dosso di Segonzano",
        "natural": "peak"
      },
      "geometry": {
        "type": "Point",
        "coordinates": [
          11.2921819,
          46.1866385
        ]
      },
      "id": "node/478978631"
    },
    {
      "type": "Feature",
      "properties": {
        "@id": "node/482730723",
        "ele": "608",
        "name": "Dos del Cuco",
        "natural": "peak"
      },
      "geometry": {
        "type": "Point",
        "coordinates": [
          11.2452409,
          46.0492418
        ]
      },
      "id": "node/482730723"
    },
    {
      "type": "Feature",
      "properties": {
        "@id": "node/482766921",
        "ele": "1618",
        "importance": "suburban",
        "name": "Malgola",
        "natural": "peak",
        "source:ele": "3rd Military Mapping Survey of Austria-Hungary",
        "wikidata": "Q31221540"
      },
      "geometry": {
        "type": "Point",
        "coordinates": [
          11.6236559,
          46.301123
        ]
      },
      "id": "node/482766921"
    },
    {
      "type": "Feature",
      "properties": {
        "@id": "node/482832515",
        "alt_name": "Cima Pontara Alta",
        "ele": "2004",
        "name": "Lemperperg",
        "natural": "peak"
      },
      "geometry": {
        "type": "Point",
        "coordinates": [
          11.3375462,
          46.1457866
        ]
      },
      "id": "node/482832515"
    },
    {
      "type": "Feature",
      "properties": {
        "@id": "node/482869268",
        "construction:summit:cross": "yes",
        "ele": "2347",
        "fixme": "As of 31.08.2020 the summit cross does not exist, but the cement foundation is already there.",
        "name": "Fravort",
        "name:mhn": "Hoabort",
        "natural": "peak",
        "start_date:summit:cross": "2021-08-21",
        "wikidata": "Q3861559",
        "wikipedia": "it:Monte Fravort"
      },
      "geometry": {
        "type": "Point",
        "coordinates": [
          11.3511386,
          46.0760038
        ]
      },
      "id": "node/482869268"
    },
    {
      "type": "Feature",
      "properties": {
        "@id": "node/482869836",
        "ele": "2234",
        "name": "Oscivart",
        "name:mhn": "Unterhoabort",
        "natural": "peak"
      },
      "geometry": {
        "type": "Point",
        "coordinates": [
          11.3471098,
          46.0775693
        ]
      },
      "id": "node/482869836"
    },
    {
      "type": "Feature",
      "properties": {
        "@id": "node/482870631",
        "ele": "2002",
        "name": "Cima Panarotta",
        "natural": "peak",
        "summit:cross": "yes",
        "wikidata": "Q20009995",
        "wikipedia": "it:Panarotta"
      },
      "geometry": {
        "type": "Point",
        "coordinates": [
          11.3344548,
          46.0500145
        ]
      },
      "id": "node/482870631"
    },
    {
      "type": "Feature",
      "properties": {
        "@id": "node/487082706",
        "ele": "851",
        "name": "Casteller",
        "natural": "peak"
      },
      "geometry": {
        "type": "Point",
        "coordinates": [
          11.2402045,
          46.0828068
        ]
      },
      "id": "node/487082706"
    },
    {
      "type": "Feature",
      "properties": {
        "@id": "node/495523846",
        "alt_name": "Dòs de la Tlìnga",
        "ele": "1063",
        "importance": "local",
        "loc_name": "Dòs de la Clìnga",
        "name": "Dosso della Clinga",
        "natural": "peak"
      },
      "geometry": {
        "type": "Point",
        "coordinates": [
          11.2442454,
          46.1130371
        ]
      },
      "id": "node/495523846"
    },
    {
      "type": "Feature",
      "properties": {
        "@id": "node/497543209",
        "ele": "2484",
        "name": "Col Rodella",
        "natural": "peak",
        "wikidata": "Q3682472"
      },
      "geometry": {
        "type": "Point",
        "coordinates": [
          11.7486236,
          46.4953446
        ]
      },
      "id": "node/497543209"
    },
    {
      "type": "Feature",
      "properties": {
        "@id": "node/498475392",
        "alt_name": "Dosso la Canal",
        "ele": "1806",
        "man_made": "cross",
        "name": "Dos La Canal",
        "natural": "peak"
      },
      "geometry": {
        "type": "Point",
        "coordinates": [
          10.5325656,
          45.866768
        ]
      },
      "id": "node/498475392"
    },
    {
      "type": "Feature",
      "properties": {
        "@id": "node/498481565",
        "alt_name": "Cima Valleselle",
        "ele": "2201",
        "name": "Costone delle Cornelle",
        "natural": "peak"
      },
      "geometry": {
        "type": "Point",
        "coordinates": [
          10.493754,
          45.880936
        ]
      },
      "id": "node/498481565"
    },
    {
      "type": "Feature",
      "properties": {
        "@id": "node/498481678",
        "alt_name": "Col Perpetue",
        "ele": "2008",
        "name": "Col de Perpetue",
        "natural": "peak"
      },
      "geometry": {
        "type": "Point",
        "coordinates": [
          10.508043,
          45.878228
        ]
      },
      "id": "node/498481678"
    },
    {
      "type": "Feature",
      "properties": {
        "@id": "node/500343065",
        "ele": "2939",
        "name": "Cima La Fradusta",
        "natural": "peak",
        "wikidata": "Q3749209",
        "wikipedia": "it:Fradusta"
      },
      "geometry": {
        "type": "Point",
        "coordinates": [
          11.8734312,
          46.2510705
        ]
      },
      "id": "node/500343065"
    },
    {
      "type": "Feature",
      "properties": {
        "@id": "node/504162352",
        "ele": "2221",
        "importance": "suburban",
        "name": "Pala dei Campedei",
        "natural": "peak"
      },
      "geometry": {
        "type": "Point",
        "coordinates": [
          11.3521195,
          46.1492461
        ]
      },
      "id": "node/504162352"
    },
    {
      "type": "Feature",
      "properties": {
        "@id": "node/517695110",
        "alt_name": "Dosso di Portole",
        "ele": "2118",
        "name": "Dos de Portole",
        "natural": "peak"
      },
      "geometry": {
        "type": "Point",
        "coordinates": [
          10.5022185,
          45.8811795
        ]
      },
      "id": "node/517695110"
    },
    {
      "type": "Feature",
      "properties": {
        "@id": "node/517874443",
        "ele": "1668",
        "name": "Rocca Fredda",
        "natural": "peak"
      },
      "geometry": {
        "type": "Point",
        "coordinates": [
          10.5986772,
          45.8607807
        ]
      },
      "id": "node/517874443"
    },
    {
      "type": "Feature",
      "properties": {
        "@id": "node/517874444",
        "ele": "1699",
        "name": "Monte Stigolo",
        "natural": "peak"
      },
      "geometry": {
        "type": "Point",
        "coordinates": [
          10.6110008,
          45.8657584
        ]
      },
      "id": "node/517874444"
    },
    {
      "type": "Feature",
      "properties": {
        "@id": "node/518977195",
        "ele": "1821",
        "name": "Cima Spessa",
        "natural": "peak"
      },
      "geometry": {
        "type": "Point",
        "coordinates": [
          10.590281,
          45.8212743
        ]
      },
      "id": "node/518977195"
    },
    {
      "type": "Feature",
      "properties": {
        "@id": "node/518991687",
        "ele": "1810",
        "name": "Cima del Levrer",
        "natural": "peak"
      },
      "geometry": {
        "type": "Point",
        "coordinates": [
          10.6539961,
          45.8271133
        ]
      },
      "id": "node/518991687"
    },
    {
      "type": "Feature",
      "properties": {
        "@id": "node/519185456",
        "ele": "2080",
        "importance": "urban",
        "name": "La Roda",
        "natural": "peak",
        "wikidata": "Q16541308",
        "wikipedia": "it:Cima Roda"
      },
      "geometry": {
        "type": "Point",
        "coordinates": [
          11.0407674,
          46.1385879
        ]
      },
      "id": "node/519185456"
    },
    {
      "type": "Feature",
      "properties": {
        "@id": "node/519651681",
        "ele": "1895",
        "name": "Cima Avèz",
        "natural": "peak"
      },
      "geometry": {
        "type": "Point",
        "coordinates": [
          10.6536006,
          45.8328724
        ]
      },
      "id": "node/519651681"
    },
    {
      "type": "Feature",
      "properties": {
        "@id": "node/519704153",
        "ele": "1371",
        "name": "Rocca Pagana",
        "natural": "peak"
      },
      "geometry": {
        "type": "Point",
        "coordinates": [
          10.591987,
          45.8577801
        ]
      },
      "id": "node/519704153"
    },
    {
      "type": "Feature",
      "properties": {
        "@id": "node/523276664",
        "ele": "1869",
        "name": "Dosso della Croce",
        "natural": "peak",
        "source": "Regione Lombardia - La banca dati territoriali CTR10000 e' prodotta da Regione Lombardia - Infrastruttura per l'Informazione Territoriale"
      },
      "geometry": {
        "type": "Point",
        "coordinates": [
          10.5267395,
          45.8709629
        ]
      },
      "id": "node/523276664"
    },
    {
      "type": "Feature",
      "properties": {
        "@id": "node/523391623",
        "ele": "2891",
        "name": "Monte Re di Castello",
        "natural": "peak",
        "source": "Regione Lombardia - La banca dati territoriali CTR10000 e' prodotta da Regione Lombardia - Infrastruttura per l'Informazione Territoriale",
        "summit:cross": "yes",
        "wikidata": "Q3861895",
        "wikipedia": "it:Monte Re di Castello"
      },
      "geometry": {
        "type": "Point",
        "coordinates": [
          10.4834601,
          46.0216799
        ]
      },
      "id": "node/523391623"
    },
    {
      "type": "Feature",
      "properties": {
        "@id": "node/523391640",
        "ele": "2396",
        "name": "Corno della Vecchia",
        "natural": "peak",
        "source": "Regione Lombardia - La banca dati territoriali CTR10000 e' prodotta da Regione Lombardia - Infrastruttura per l'Informazione Territoriale"
      },
      "geometry": {
        "type": "Point",
        "coordinates": [
          10.4826283,
          46.0410535
        ]
      },
      "id": "node/523391640"
    },
    {
      "type": "Feature",
      "properties": {
        "@id": "node/523391928",
        "ele": "2879",
        "name": "Pilastro",
        "natural": "peak",
        "source": "Regione Lombardia - La banca dati territoriali CTR10000 e' prodotta da Regione Lombardia - Infrastruttura per l'Informazione Territoriale"
      },
      "geometry": {
        "type": "Point",
        "coordinates": [
          10.5424086,
          46.1074384
        ]
      },
      "id": "node/523391928"
    },
    {
      "type": "Feature",
      "properties": {
        "@id": "node/523392188",
        "ele": "3408",
        "name": "Monte Fumo",
        "natural": "peak",
        "source": "Regione Lombardia - La banca dati territoriali CTR10000 e' prodotta da Regione Lombardia - Infrastruttura per l'Informazione Territoriale"
      },
      "geometry": {
        "type": "Point",
        "coordinates": [
          10.5467919,
          46.1434326
        ]
      },
      "id": "node/523392188"
    },
    {
      "type": "Feature",
      "properties": {
        "@id": "node/523392303",
        "ele": "2909",
        "name": "Cresta Pisage",
        "natural": "peak",
        "source": "Regione Lombardia - La banca dati territoriali CTR10000 e' prodotta da Regione Lombardia - Infrastruttura per l'Informazione Territoriale"
      },
      "geometry": {
        "type": "Point",
        "coordinates": [
          10.5512359,
          46.1248681
        ]
      },
      "id": "node/523392303"
    },
    {
      "type": "Feature",
      "properties": {
        "@id": "node/525846050",
        "ele": "1411",
        "name": "Monte Calvo",
        "natural": "peak",
        "wikidata": "Q31222553"
      },
      "geometry": {
        "type": "Point",
        "coordinates": [
          11.2604791,
          46.1007524
        ]
      },
      "id": "node/525846050"
    },
    {
      "type": "Feature",
      "properties": {
        "@id": "node/526142464",
        "ele": "2897",
        "natural": "peak"
      },
      "geometry": {
        "type": "Point",
        "coordinates": [
          11.822873,
          46.5156201
        ]
      },
      "id": "node/526142464"
    },
    {
      "type": "Feature",
      "properties": {
        "@id": "node/526182172",
        "ele": "2908",
        "name": "l'Antersass",
        "name:de": "Zwischenkofel",
        "name:it": "l'Antersass",
        "name:lld": "Trasassi",
        "natural": "peak"
      },
      "geometry": {
        "type": "Point",
        "coordinates": [
          11.8238256,
          46.5194079
        ]
      },
      "id": "node/526182172"
    },
    {
      "type": "Feature",
      "properties": {
        "@id": "node/526955992",
        "ele": "2882",
        "name": "Col Aut",
        "natural": "peak"
      },
      "geometry": {
        "type": "Point",
        "coordinates": [
          11.81835,
          46.5107642
        ]
      },
      "id": "node/526955992"
    },
    {
      "type": "Feature",
      "properties": {
        "@id": "node/526955993",
        "ele": "2927",
        "name": "Col Turont",
        "natural": "peak"
      },
      "geometry": {
        "type": "Point",
        "coordinates": [
          11.8196503,
          46.5133502
        ]
      },
      "id": "node/526955993"
    },
    {
      "type": "Feature",
      "properties": {
        "@id": "node/528946084",
        "ele": "769",
        "name": "Doss del Clef",
        "natural": "peak"
      },
      "geometry": {
        "type": "Point",
        "coordinates": [
          10.8889839,
          45.9529538
        ]
      },
      "id": "node/528946084"
    },
    {
      "type": "Feature",
      "properties": {
        "@id": "node/529087732",
        "ele": "1193",
        "name": "Monte Calva",
        "natural": "peak"
      },
      "geometry": {
        "type": "Point",
        "coordinates": [
          10.5397388,
          45.7881723
        ]
      },
      "id": "node/529087732"
    },
    {
      "type": "Feature",
      "properties": {
        "@id": "node/529691501",
        "ele": "3164",
        "name": "Corno di Lago Scuro",
        "natural": "peak",
        "source": "Regione Lombardia - La banca dati territoriali CTR10000 e' prodotta da Regione Lombardia - Infrastruttura per l'Informazione Territoriale",
        "wikidata": "Q31635479"
      },
      "geometry": {
        "type": "Point",
        "coordinates": [
          10.5704523,
          46.2231444
        ]
      },
      "id": "node/529691501"
    },
    {
      "type": "Feature",
      "properties": {
        "@id": "node/529691506",
        "ele": "3090",
        "name": "Corno di Casamadre",
        "natural": "peak",
        "source": "Regione Lombardia - La banca dati territoriali CTR10000 e' prodotta da Regione Lombardia - Infrastruttura per l'Informazione Territoriale"
      },
      "geometry": {
        "type": "Point",
        "coordinates": [
          10.5710899,
          46.2263231
        ]
      },
      "id": "node/529691506"
    },
    {
      "type": "Feature",
      "properties": {
        "@id": "node/529691513",
        "ele": "3439",
        "name": "Cima Meridionale del Dosson",
        "natural": "peak",
        "source": "Regione Lombardia - La banca dati territoriali CTR10000 e' prodotta da Regione Lombardia - Infrastruttura per l'Informazione Territoriale"
      },
      "geometry": {
        "type": "Point",
        "coordinates": [
          10.5542611,
          46.1485961
        ]
      },
      "id": "node/529691513"
    },
    {
      "type": "Feature",
      "properties": {
        "@id": "node/529691514",
        "ele": "3379",
        "name": "Cima Settentrionale del Dosson",
        "natural": "peak",
        "source": "Regione Lombardia - La banca dati territoriali CTR10000 e' prodotta da Regione Lombardia - Infrastruttura per l'Informazione Territoriale"
      },
      "geometry": {
        "type": "Point",
        "coordinates": [
          10.5572647,
          46.1568243
        ]
      },
      "id": "node/529691514"
    },
    {
      "type": "Feature",
      "properties": {
        "@id": "node/529691519",
        "ele": "3381",
        "name": "Cima Centrale del Dosson",
        "natural": "peak",
        "source": "Regione Lombardia - La banca dati territoriali CTR10000 e' prodotta da Regione Lombardia - Infrastruttura per l'Informazione Territoriale"
      },
      "geometry": {
        "type": "Point",
        "coordinates": [
          10.555471,
          46.1541371
        ]
      },
      "id": "node/529691519"
    },
    {
      "type": "Feature",
      "properties": {
        "@id": "node/529691540",
        "ele": "2783",
        "name": "Cima Casaiole",
        "natural": "peak",
        "source": "Regione Lombardia - La banca dati territoriali CTR10000 e' prodotta da Regione Lombardia - Infrastruttura per l'Informazione Territoriale"
      },
      "geometry": {
        "type": "Point",
        "coordinates": [
          10.568896,
          46.2902796
        ]
      },
      "id": "node/529691540"
    },
    {
      "type": "Feature",
      "properties": {
        "@id": "node/529691598",
        "ele": "3593",
        "name": "Monte Giumella",
        "natural": "peak",
        "source": "Regione Lombardia - La banca dati territoriali CTR10000 e' prodotta da Regione Lombardia - Infrastruttura per l'Informazione Territoriale",
        "summit:cross": "yes",
        "wikidata": "Q31637630"
      },
      "geometry": {
        "type": "Point",
        "coordinates": [
          10.5787984,
          46.3752146
        ]
      },
      "id": "node/529691598"
    },
    {
      "type": "Feature",
      "properties": {
        "@id": "node/529691649",
        "ele": "3612",
        "name": "Punta Taviela",
        "natural": "peak",
        "source": "Regione Lombardia - La banca dati territoriali CTR10000 e' prodotta da Regione Lombardia - Infrastruttura per l'Informazione Territoriale",
        "wikidata": "Q3925726",
        "wikipedia": "it:Punta Taviela"
      },
      "geometry": {
        "type": "Point",
        "coordinates": [
          10.6163387,
          46.3885978
        ]
      },
      "id": "node/529691649"
    },
    {
      "type": "Feature",
      "properties": {
        "@id": "node/530831149",
        "ele": "1899",
        "name": "Monte Cornetto",
        "natural": "peak",
        "wikidata": "Q2737193",
        "wikipedia": "it:Monte Cornetto"
      },
      "geometry": {
        "type": "Point",
        "coordinates": [
          11.1761914,
          45.7469759
        ]
      },
      "id": "node/530831149"
    },
    {
      "type": "Feature",
      "properties": {
        "@id": "node/533993882",
        "ele": "1170",
        "name": "Cingolo Rosso",
        "natural": "peak",
        "source": "Regione Lombardia - La banca dati territoriali CTR10000 e' prodotta da Regione Lombardia - Infrastruttura per l'Informazione Territoriale"
      },
      "geometry": {
        "type": "Point",
        "coordinates": [
          10.5482014,
          45.7849174
        ]
      },
      "id": "node/533993882"
    },
    {
      "type": "Feature",
      "properties": {
        "@id": "node/533993912",
        "ele": "1837",
        "name": "Monte Lavino",
        "natural": "peak",
        "source": "Regione Lombardia - La banca dati territoriali CTR10000 e' prodotta da Regione Lombardia - Infrastruttura per l'Informazione Territoriale"
      },
      "geometry": {
        "type": "Point",
        "coordinates": [
          10.663799,
          45.8318222
        ]
      },
      "id": "node/533993912"
    },
    {
      "type": "Feature",
      "properties": {
        "@id": "node/533994016",
        "ele": "1807",
        "name": "Cima del Dil",
        "natural": "peak",
        "source": "Regione Lombardia - La banca dati territoriali CTR10000 e' prodotta da Regione Lombardia - Infrastruttura per l'Informazione Territoriale"
      },
      "geometry": {
        "type": "Point",
        "coordinates": [
          10.6807808,
          45.8323698
        ]
      },
      "id": "node/533994016"
    },
    {
      "type": "Feature",
      "properties": {
        "@id": "node/533994077",
        "ele": "1973",
        "name": "Monte Tremalzo",
        "natural": "peak",
        "source": "Regione Lombardia - La banca dati territoriali CTR10000 e' prodotta da Regione Lombardia - Infrastruttura per l'Informazione Territoriale",
        "wikidata": "Q3862087",
        "wikipedia": "it:Monte Tremalzo"
      },
      "geometry": {
        "type": "Point",
        "coordinates": [
          10.6990381,
          45.8417244
        ]
      },
      "id": "node/533994077"
    },
    {
      "type": "Feature",
      "properties": {
        "@id": "node/533994078",
        "ele": "1951",
        "name": "Corno della Marogna",
        "natural": "peak",
        "source": "Regione Lombardia - La banca dati territoriali CTR10000 e' prodotta da Regione Lombardia - Infrastruttura per l'Informazione Territoriale"
      },
      "geometry": {
        "type": "Point",
        "coordinates": [
          10.70692,
          45.8365456
        ]
      },
      "id": "node/533994078"
    },
    {
      "type": "Feature",
      "properties": {
        "@id": "node/533994097",
        "ele": "1710",
        "name": "Cima Tuflungo",
        "natural": "peak",
        "source": "Regione Lombardia - La banca dati territoriali CTR10000 e' prodotta da Regione Lombardia - Infrastruttura per l'Informazione Territoriale"
      },
      "geometry": {
        "type": "Point",
        "coordinates": [
          10.7228437,
          45.8413529
        ]
      },
      "id": "node/533994097"
    },
    {
      "type": "Feature",
      "properties": {
        "@id": "node/533994099",
        "ele": "1371",
        "name": "Punta di Mois",
        "natural": "peak",
        "source": "Regione Lombardia - La banca dati territoriali CTR10000 e' prodotta da Regione Lombardia - Infrastruttura per l'Informazione Territoriale"
      },
      "geometry": {
        "type": "Point",
        "coordinates": [
          10.7822445,
          45.836504
        ]
      },
      "id": "node/533994099"
    },
    {
      "type": "Feature",
      "properties": {
        "@id": "node/534251275",
        "ele": "3343",
        "name": "Punta Penia",
        "name:lld": "Marmolèda",
        "name:uk": "Мармолада",
        "natural": "peak",
        "prominence": "2131",
        "source:prominence": "https://en.wikipedia.org/wiki/List_of_European_ultra-prominent_peaks",
        "summit:cross": "yes",
        "wikidata": "Q3925700",
        "wikipedia": "it:Punta Penia"
      },
      "geometry": {
        "type": "Point",
        "coordinates": [
          11.8513263,
          46.434526
        ]
      },
      "id": "node/534251275"
    },
    {
      "type": "Feature",
      "properties": {
        "@id": "node/534680004",
        "ele": "2673",
        "name": "Fracinglo",
        "natural": "peak"
      },
      "geometry": {
        "type": "Point",
        "coordinates": [
          10.8515919,
          46.1707924
        ]
      },
      "id": "node/534680004"
    },
    {
      "type": "Feature",
      "properties": {
        "@id": "node/534680010",
        "natural": "peak"
      },
      "geometry": {
        "type": "Point",
        "coordinates": [
          10.8592095,
          46.1609604
        ]
      },
      "id": "node/534680010"
    },
    {
      "type": "Feature",
      "properties": {
        "@id": "node/534680053",
        "ele": "2880",
        "name": "Cima Val Stretta",
        "natural": "peak"
      },
      "geometry": {
        "type": "Point",
        "coordinates": [
          10.8588018,
          46.1574084
        ]
      },
      "id": "node/534680053"
    },
    {
      "type": "Feature",
      "properties": {
        "@id": "node/534680158",
        "natural": "peak"
      },
      "geometry": {
        "type": "Point",
        "coordinates": [
          10.8524319,
          46.1616118
        ]
      },
      "id": "node/534680158"
    },
    {
      "type": "Feature",
      "properties": {
        "@id": "node/534681839",
        "ele": "2870",
        "natural": "peak"
      },
      "geometry": {
        "type": "Point",
        "coordinates": [
          10.8613594,
          46.1540104
        ]
      },
      "id": "node/534681839"
    },
    {
      "type": "Feature",
      "properties": {
        "@id": "node/534681876",
        "ele": "2437",
        "name": "Cima Pra dei Camosci",
        "natural": "peak"
      },
      "geometry": {
        "type": "Point",
        "coordinates": [
          10.8367688,
          46.1621774
        ]
      },
      "id": "node/534681876"
    },
    {
      "type": "Feature",
      "properties": {
        "@id": "node/534681953",
        "natural": "peak"
      },
      "geometry": {
        "type": "Point",
        "coordinates": [
          10.8810264,
          46.1843248
        ]
      },
      "id": "node/534681953"
    },
    {
      "type": "Feature",
      "properties": {
        "@id": "node/534681982",
        "ele": "2846",
        "name": "Punta Massari",
        "natural": "peak"
      },
      "geometry": {
        "type": "Point",
        "coordinates": [
          10.8897549,
          46.1840539
        ]
      },
      "id": "node/534681982"
    },
    {
      "type": "Feature",
      "properties": {
        "@id": "node/534682274",
        "ele": "2865",
        "name": "Cima Vagliana",
        "natural": "peak"
      },
      "geometry": {
        "type": "Point",
        "coordinates": [
          10.8933736,
          46.2362585
        ]
      },
      "id": "node/534682274"
    },
    {
      "type": "Feature",
      "properties": {
        "@id": "node/534682356",
        "ele": "2894",
        "name": "Cima Sassara",
        "natural": "peak"
      },
      "geometry": {
        "type": "Point",
        "coordinates": [
          10.8908244,
          46.2508863
        ]
      },
      "id": "node/534682356"
    },
    {
      "type": "Feature",
      "properties": {
        "@id": "node/534682491",
        "ele": "2528",
        "name": "Mondifrà Alto",
        "natural": "peak"
      },
      "geometry": {
        "type": "Point",
        "coordinates": [
          10.8787535,
          46.2491612
        ]
      },
      "id": "node/534682491"
    },
    {
      "type": "Feature",
      "properties": {
        "@id": "node/534683207",
        "ele": "2294",
        "name": "Mondifrà Basso",
        "natural": "peak"
      },
      "geometry": {
        "type": "Point",
        "coordinates": [
          10.8756963,
          46.2549117
        ]
      },
      "id": "node/534683207"
    },
    {
      "type": "Feature",
      "properties": {
        "@id": "node/534683618",
        "ele": "2990",
        "name": "Cima Falkner",
        "natural": "peak",
        "wikidata": "Q1092008",
        "wikipedia": "it:Cima Falkner"
      },
      "geometry": {
        "type": "Point",
        "coordinates": [
          10.9050482,
          46.1929243
        ]
      },
      "id": "node/534683618"
    },
    {
      "type": "Feature",
      "properties": {
        "@id": "node/534686158",
        "ele": "2614",
        "name": "Cima Nardis",
        "natural": "peak"
      },
      "geometry": {
        "type": "Point",
        "coordinates": [
          10.8459002,
          46.1592324
        ]
      },
      "id": "node/534686158"
    },
    {
      "type": "Feature",
      "properties": {
        "@id": "node/534689307",
        "ele": "2700",
        "name": "XII Apostoli",
        "natural": "peak"
      },
      "geometry": {
        "type": "Point",
        "coordinates": [
          10.8465261,
          46.1473628
        ]
      },
      "id": "node/534689307"
    },
    {
      "type": "Feature",
      "properties": {
        "@id": "node/534689393",
        "ele": "3102",
        "name": "Cima d'Ambiez",
        "natural": "peak",
        "wikidata": "Q1092019"
      },
      "geometry": {
        "type": "Point",
        "coordinates": [
          10.8679154,
          46.1504261
        ]
      },
      "id": "node/534689393"
    },
    {
      "type": "Feature",
      "properties": {
        "@id": "node/534689463",
        "ele": "2845",
        "name": "Cima Margherita",
        "natural": "peak",
        "wikidata": "Q23072019"
      },
      "geometry": {
        "type": "Point",
        "coordinates": [
          10.8837502,
          46.1585347
        ]
      },
      "id": "node/534689463"
    },
    {
      "type": "Feature",
      "properties": {
        "@id": "node/534690697",
        "ele": "2917",
        "name": "Cima di Molveno",
        "natural": "peak",
        "wikidata": "Q31357107"
      },
      "geometry": {
        "type": "Point",
        "coordinates": [
          10.8993769,
          46.1724273
        ]
      },
      "id": "node/534690697"
    },
    {
      "type": "Feature",
      "properties": {
        "@id": "node/534774157",
        "ele": "2640",
        "name": "Cima della Gaiarda",
        "natural": "peak"
      },
      "geometry": {
        "type": "Point",
        "coordinates": [
          10.9309152,
          46.189213
        ]
      },
      "id": "node/534774157"
    },
    {
      "type": "Feature",
      "properties": {
        "@id": "node/534774177",
        "ele": "2803",
        "name": "Cima di Vallazza",
        "natural": "peak"
      },
      "geometry": {
        "type": "Point",
        "coordinates": [
          10.9199074,
          46.1862866
        ]
      },
      "id": "node/534774177"
    },
    {
      "type": "Feature",
      "properties": {
        "@id": "node/534774385",
        "ele": "2457",
        "name": "Cima dei Lasteri",
        "natural": "peak"
      },
      "geometry": {
        "type": "Point",
        "coordinates": [
          10.948253,
          46.1765554
        ]
      },
      "id": "node/534774385"
    },
    {
      "type": "Feature",
      "properties": {
        "@id": "node/534784248",
        "ele": "2877",
        "name": "Campanile Basso",
        "natural": "peak",
        "wikidata": "Q652600",
        "wikipedia": "it:Campanile Basso"
      },
      "geometry": {
        "type": "Point",
        "coordinates": [
          10.8941561,
          46.1619699
        ]
      },
      "id": "node/534784248"
    },
    {
      "type": "Feature",
      "properties": {
        "@id": "node/534784314",
        "ele": "2937",
        "name": "Campanile Alto",
        "natural": "peak",
        "wikidata": "Q3651810",
        "wikipedia": "it:Campanile Alto"
      },
      "geometry": {
        "type": "Point",
        "coordinates": [
          10.8935547,
          46.1642846
        ]
      },
      "id": "node/534784314"
    },
    {
      "type": "Feature",
      "properties": {
        "@id": "node/534785516",
        "ele": "2964",
        "name": "Cima Brenta Alta",
        "natural": "peak",
        "wikidata": "Q1091996"
      },
      "geometry": {
        "type": "Point",
        "coordinates": [
          10.8965833,
          46.1603617
        ]
      },
      "id": "node/534785516"
    },
    {
      "type": "Feature",
      "properties": {
        "@id": "node/534789871",
        "ele": "2901",
        "name": "Cima Grostè",
        "natural": "peak",
        "wikidata": "Q1092016",
        "wikipedia": "it:Cima Grostè"
      },
      "geometry": {
        "type": "Point",
        "coordinates": [
          10.9052057,
          46.1983256
        ]
      },
      "id": "node/534789871"
    },
    {
      "type": "Feature",
      "properties": {
        "@id": "node/534793726",
        "ele": "2920",
        "name": "Campanile dei Camosci",
        "natural": "peak"
      },
      "geometry": {
        "type": "Point",
        "coordinates": [
          10.9056206,
          46.1961284
        ]
      },
      "id": "node/534793726"
    },
    {
      "type": "Feature",
      "properties": {
        "@id": "node/534795784",
        "ele": "3014",
        "name": "Torre di Brenta",
        "natural": "peak",
        "wikidata": "Q573567",
        "wikipedia": "it:Torre di Brenta"
      },
      "geometry": {
        "type": "Point",
        "coordinates": [
          10.8958201,
          46.1671402
        ]
      },
      "id": "node/534795784"
    },
    {
      "type": "Feature",
      "properties": {
        "@id": "node/537141745",
        "ele": "3307",
        "name": "Punta Giovanni Paolo II",
        "natural": "peak",
        "official_name": "Cresta Croce",
        "summit:cross": "yes"
      },
      "geometry": {
        "type": "Point",
        "coordinates": [
          10.5605242,
          46.1624362
        ]
      },
      "id": "node/537141745"
    },
    {
      "type": "Feature",
      "properties": {
        "@id": "node/543523594",
        "ele": "1074",
        "name": "Piz dele Agole",
        "natural": "peak",
        "tourism": "viewpoint"
      },
      "geometry": {
        "type": "Point",
        "coordinates": [
          11.2040717,
          46.1717341
        ]
      },
      "id": "node/543523594"
    },
    {
      "type": "Feature",
      "properties": {
        "@id": "node/552883079",
        "ele": "1528",
        "name": "Cima Castion",
        "natural": "peak"
      },
      "geometry": {
        "type": "Point",
        "coordinates": [
          11.2335932,
          46.2181695
        ]
      },
      "id": "node/552883079"
    },
    {
      "type": "Feature",
      "properties": {
        "@id": "node/560520378",
        "ele": "2788",
        "natural": "peak"
      },
      "geometry": {
        "type": "Point",
        "coordinates": [
          10.6476394,
          46.1942121
        ]
      },
      "id": "node/560520378"
    },
    {
      "type": "Feature",
      "properties": {
        "@id": "node/560520399",
        "natural": "peak"
      },
      "geometry": {
        "type": "Point",
        "coordinates": [
          10.654051,
          46.1991818
        ]
      },
      "id": "node/560520399"
    },
    {
      "type": "Feature",
      "properties": {
        "@id": "node/560520481",
        "ele": "3100",
        "natural": "peak"
      },
      "geometry": {
        "type": "Point",
        "coordinates": [
          10.6603877,
          46.197334
        ]
      },
      "id": "node/560520481"
    },
    {
      "type": "Feature",
      "properties": {
        "@id": "node/560520571",
        "ele": "3289",
        "name": "Ago di Nardis",
        "natural": "peak",
        "wikidata": "Q3606683",
        "wikipedia": "it:Ago di Nardis"
      },
      "geometry": {
        "type": "Point",
        "coordinates": [
          10.6559198,
          46.2048847
        ]
      },
      "id": "node/560520571"
    },
    {
      "type": "Feature",
      "properties": {
        "@id": "node/560520602",
        "ele": "3458",
        "name": "Monte Gabbiolo",
        "natural": "peak"
      },
      "geometry": {
        "type": "Point",
        "coordinates": [
          10.6506479,
          46.216501
        ]
      },
      "id": "node/560520602"
    },
    {
      "type": "Feature",
      "properties": {
        "@id": "node/560520647",
        "natural": "peak"
      },
      "geometry": {
        "type": "Point",
        "coordinates": [
          10.6416055,
          46.2132597
        ]
      },
      "id": "node/560520647"
    },
    {
      "type": "Feature",
      "properties": {
        "@id": "node/560520651",
        "ele": "2963",
        "name": "Campanili del Gabbiolo",
        "natural": "peak"
      },
      "geometry": {
        "type": "Point",
        "coordinates": [
          10.6400925,
          46.2104816
        ]
      },
      "id": "node/560520651"
    },
    {
      "type": "Feature",
      "properties": {
        "@id": "node/560520704",
        "ele": "2789",
        "natural": "peak"
      },
      "geometry": {
        "type": "Point",
        "coordinates": [
          10.6391164,
          46.208419
        ]
      },
      "id": "node/560520704"
    },
    {
      "type": "Feature",
      "properties": {
        "@id": "node/570801080",
        "ele": "2264",
        "name": "Pizzo Alto",
        "name:mhn": "Hoaspitz",
        "natural": "peak",
        "source:ele": "Kompass 626 map",
        "wikidata": "Q31634637"
      },
      "geometry": {
        "type": "Point",
        "coordinates": [
          11.3757451,
          46.1054519
        ]
      },
      "id": "node/570801080"
    },
    {
      "type": "Feature",
      "properties": {
        "@id": "node/582010150",
        "ele": "564",
        "historic": "wayside_cross",
        "name": "Mere Spiz",
        "natural": "peak"
      },
      "geometry": {
        "type": "Point",
        "coordinates": [
          11.0680994,
          45.8877808
        ]
      },
      "id": "node/582010150"
    },
    {
      "type": "Feature",
      "properties": {
        "@id": "node/648548891",
        "ele": "2179",
        "name": "Monte Vigo",
        "natural": "peak"
      },
      "geometry": {
        "type": "Point",
        "coordinates": [
          10.8273595,
          46.2753183
        ]
      },
      "id": "node/648548891"
    },
    {
      "type": "Feature",
      "properties": {
        "@id": "node/648548893",
        "ele": "2092",
        "name": "Monte Spolverino",
        "natural": "peak"
      },
      "geometry": {
        "type": "Point",
        "coordinates": [
          10.8377767,
          46.2851634
        ]
      },
      "id": "node/648548893"
    },
    {
      "type": "Feature",
      "properties": {
        "@id": "node/648548894",
        "ele": "1855",
        "name": "Malghet Aut",
        "natural": "peak"
      },
      "geometry": {
        "type": "Point",
        "coordinates": [
          10.8510677,
          46.290552
        ]
      },
      "id": "node/648548894"
    },
    {
      "type": "Feature",
      "properties": {
        "@id": "node/650278442",
        "ele": "1770",
        "name": "Bergner Kreuz - Croce di Forcella Piccola",
        "name:de": "Bergner Kreuz",
        "name:it": "Croce di Forcella Piccola",
        "natural": "peak",
        "source:ele": "GPS",
        "summit:cross": "yes"
      },
      "geometry": {
        "type": "Point",
        "coordinates": [
          11.2128535,
          46.4801922
        ]
      },
      "id": "node/650278442"
    },
    {
      "type": "Feature",
      "properties": {
        "@id": "node/677379995",
        "cross:material": "metal",
        "ele": "2063",
        "name": "Cima Pissola",
        "natural": "peak",
        "summit:cross": "yes"
      },
      "geometry": {
        "type": "Point",
        "coordinates": [
          10.566972,
          45.9335592
        ]
      },
      "id": "node/677379995"
    },
    {
      "type": "Feature",
      "properties": {
        "@id": "node/677416720",
        "alt_name": "Campantic",
        "ele": "2145",
        "loc_name": "Campantic",
        "name": "Monte Cengledino",
        "natural": "peak",
        "summit:cross": "yes"
      },
      "geometry": {
        "type": "Point",
        "coordinates": [
          10.6653533,
          46.0408258
        ]
      },
      "id": "node/677416720"
    },
    {
      "type": "Feature",
      "properties": {
        "@id": "node/717482164",
        "ele": "2210",
        "name": "Cima Posta",
        "natural": "peak"
      },
      "geometry": {
        "type": "Point",
        "coordinates": [
          11.122496,
          45.7274185
        ]
      },
      "id": "node/717482164"
    },
    {
      "type": "Feature",
      "properties": {
        "@id": "node/722739688",
        "ele": "3184",
        "fixme": "resurvey",
        "importance": "national",
        "name": "Cimon della Pala",
        "natural": "peak",
        "wikidata": "Q2523107",
        "wikipedia": "it:Cimon della Pala"
      },
      "geometry": {
        "type": "Point",
        "coordinates": [
          11.8239713,
          46.2849069
        ]
      },
      "id": "node/722739688"
    },
    {
      "type": "Feature",
      "properties": {
        "@id": "node/729651433",
        "cross:material": "metal",
        "ele": "2665",
        "name": "Monte Bruffione",
        "natural": "peak",
        "summit:cross": "yes"
      },
      "geometry": {
        "type": "Point",
        "coordinates": [
          10.4915216,
          45.9420933
        ]
      },
      "id": "node/729651433"
    },
    {
      "type": "Feature",
      "properties": {
        "@id": "node/729658156",
        "ele": "2183",
        "name": "Doss dei Morti",
        "natural": "peak"
      },
      "geometry": {
        "type": "Point",
        "coordinates": [
          10.605986,
          45.9745237
        ]
      },
      "id": "node/729658156"
    },
    {
      "type": "Feature",
      "properties": {
        "@id": "node/730760666",
        "ele": "2192",
        "name": "Grotta Rossa",
        "natural": "peak"
      },
      "geometry": {
        "type": "Point",
        "coordinates": [
          10.5256361,
          45.904033
        ]
      },
      "id": "node/730760666"
    },
    {
      "type": "Feature",
      "properties": {
        "@id": "node/732511048",
        "ele": "1641",
        "name": "Cima Palone",
        "natural": "peak"
      },
      "geometry": {
        "type": "Point",
        "coordinates": [
          10.6507622,
          45.9116142
        ]
      },
      "id": "node/732511048"
    },
    {
      "type": "Feature",
      "properties": {
        "@id": "node/741278255",
        "ele": "1584",
        "name": "Monte Vederna",
        "natural": "peak",
        "wikidata": "Q3862110",
        "wikipedia": "it:Monte Vederna"
      },
      "geometry": {
        "type": "Point",
        "coordinates": [
          11.7884068,
          46.129354
        ]
      },
      "id": "node/741278255"
    },
    {
      "type": "Feature",
      "properties": {
        "@id": "node/747049937",
        "ele": "1090",
        "name": "Cima Rocca",
        "natural": "peak",
        "summit:cross": "yes",
        "wikidata": "Q28001008"
      },
      "geometry": {
        "type": "Point",
        "coordinates": [
          10.8219577,
          45.8722955
        ]
      },
      "id": "node/747049937"
    },
    {
      "type": "Feature",
      "properties": {
        "@id": "node/747049938",
        "ele": "909",
        "name": "Cima Capi",
        "natural": "peak",
        "summit:register": "yes",
        "wikidata": "Q28000997"
      },
      "geometry": {
        "type": "Point",
        "coordinates": [
          10.8286087,
          45.8695438
        ]
      },
      "id": "node/747049938"
    },
    {
      "type": "Feature",
      "properties": {
        "@id": "node/747055529",
        "ele": "2151",
        "name": "Monte Tofino",
        "natural": "peak",
        "wikidata": "Q3862073",
        "wikipedia": "it:Monte Tofino"
      },
      "geometry": {
        "type": "Point",
        "coordinates": [
          10.7726487,
          45.9481916
        ]
      },
      "id": "node/747055529"
    },
    {
      "type": "Feature",
      "properties": {
        "@id": "node/747055546",
        "ele": "2047",
        "name": "Gavardina",
        "natural": "peak"
      },
      "geometry": {
        "type": "Point",
        "coordinates": [
          10.7515709,
          45.9699393
        ]
      },
      "id": "node/747055546"
    },
    {
      "type": "Feature",
      "properties": {
        "@id": "node/747059507",
        "ele": "1923",
        "name": "Nozzolo Piccolo",
        "natural": "peak"
      },
      "geometry": {
        "type": "Point",
        "coordinates": [
          10.6775196,
          45.9319341
        ]
      },
      "id": "node/747059507"
    },